[
  {"code": "NGB", "name": "Ningbo Lishe International Airport", "city": "Ningbo", "city_cn": "宁波", "country": "CN", "lat": 29.8267, "lon": 121.4619, "is_international_hub": false, "is_domestic_only": false, "aliases": ["ningbo", "Ningbo", "宁波", "NGB", "ngb"]},
  {"code": "PVG", "name": "Shanghai Pudong International Airport", "city": "Shanghai", "city_cn": "上海", "country": "CN", "lat": 31.1434, "lon": 121.8051, "is_international_hub": true, "is_domestic_only": false, "preferred": true, "aliases": ["shanghai", "Shanghai", "上海", "PVG", "pvg", "浦东", "pudong"]},
  {"code": "SHA", "name": "Shanghai Hongqiao International Airport", "city": "Shanghai", "city_cn": "上海", "country": "CN", "lat": 31.1979, "lon": 121.3363, "is_international_hub": true, "is_domestic_only": false, "aliases": ["shanghai", "Shanghai", "上海", "SHA", "sha", "虹桥", "hongqiao"]},
  {"code": "HGH", "name": "Hangzhou Xiaoshan International Airport", "city": "Hangzhou", "city_cn": "杭州", "country": "CN", "lat": 30.2295, "lon": 120.4344, "is_international_hub": true, "is_domestic_only": false, "aliases": ["hangzhou", "Hangzhou", "杭州", "HGH", "hgh"]},
  {"code": "NKG", "name": "Nanjing Lukou International Airport", "city": "Nanjing", "city_cn": "南京", "country": "CN", "lat": 31.7420, "lon": 118.8620, "is_international_hub": true, "is_domestic_only": false, "aliases": ["nanjing", "Nanjing", "南京", "NKG", "nkg"]},
  {"code": "PEK", "name": "Beijing Capital International Airport", "city": "Beijing", "city_cn": "北京", "country": "CN", "lat": 40.0799, "lon": 116.6031, "is_international_hub": true, "is_domestic_only": false, "preferred": true, "aliases": ["beijing", "Beijing", "北京", "PEK", "pek", "首都", "capital"]},
  {"code": "PKX", "name": "Beijing Daxing International Airport", "city": "Beijing", "city_cn": "北京", "country": "CN", "lat": 39.5098, "lon": 116.4105, "is_international_hub": true, "is_domestic_only": false, "aliases": ["beijing", "Beijing", "北京", "PKX", "pkx", "大兴", "daxing"]},
  {"code": "CAN", "name": "Guangzhou Baiyun International Airport", "city": "Guangzhou", "city_cn": "广州", "country": "CN", "lat": 23.3924, "lon": 113.2988, "is_international_hub": true, "is_domestic_only": false, "aliases": ["guangzhou", "Guangzhou", "广州", "CAN", "can"]},
  {"code": "SZX", "name": "Shenzhen Bao'an International Airport", "city": "Shenzhen", "city_cn": "深圳", "country": "CN", "lat": 22.6394, "lon": 113.8144, "is_international_hub": true, "is_domestic_only": false, "aliases": ["shenzhen", "Shenzhen", "深圳", "SZX", "szx"]},
  {"code": "HKG", "name": "Hong Kong International Airport", "city": "Hong Kong", "city_cn": "香港", "country": "CN", "lat": 22.3080, "lon": 113.9185, "is_international_hub": true, "is_domestic_only": false, "aliases": ["hong kong", "Hong Kong", "HK", "hk", "香港", "HKG", "hkg"]},
  {"code": "XMN", "name": "Xiamen Gaoqi International Airport", "city": "Xiamen", "city_cn": "厦门", "country": "CN", "lat": 24.5440, "lon": 118.1277, "is_international_hub": false, "is_domestic_only": false, "aliases": ["xiamen", "Xiamen", "厦门", "XMN", "xmn"]},
  {"code": "FOC", "name": "Fuzhou Changle International Airport", "city": "Fuzhou", "city_cn": "福州", "country": "CN", "lat": 25.9351, "lon": 119.6633, "is_international_hub": false, "is_domestic_only": false, "aliases": ["fuzhou", "Fuzhou", "福州", "FOC", "foc"]},
  {"code": "WNZ", "name": "Wenzhou Longwan International Airport", "city": "Wenzhou", "city_cn": "温州", "country": "CN", "lat": 27.9120, "lon": 120.8517, "is_international_hub": false, "is_domestic_only": false, "aliases": ["wenzhou", "Wenzhou", "温州", "WNZ", "wnz"]},
  {"code": "TFU", "name": "Chengdu Tianfu International Airport", "city": "Chengdu", "city_cn": "成都", "country": "CN", "lat": 30.3238, "lon": 104.4431, "is_international_hub": true, "is_domestic_only": false, "preferred": true, "aliases": ["chengdu", "Chengdu", "成都", "TFU", "tfu", "天府", "成都天府", "chengdu tianfu"]},
  {"code": "CTU", "name": "Chengdu Shuangliu International Airport", "city": "Chengdu", "city_cn": "成都", "country": "CN", "lat": 30.5785, "lon": 103.9469, "is_international_hub": false, "is_domestic_only": false, "aliases": ["chengdu", "Chengdu", "成都", "CTU", "ctu", "双流", "成都双流", "chengdu shuangliu"]},
  {"code": "CKG", "name": "Chongqing Jiangbei International Airport", "city": "Chongqing", "city_cn": "重庆", "country": "CN", "lat": 29.7192, "lon": 106.6417, "is_international_hub": true, "is_domestic_only": false, "aliases": ["chongqing", "Chongqing", "重庆", "CKG", "ckg"]},
  {"code": "TAO", "name": "Qingdao Jiaodong International Airport", "city": "Qingdao", "city_cn": "青岛", "country": "CN", "lat": 36.2615, "lon": 120.1240, "is_international_hub": false, "is_domestic_only": false, "aliases": ["qingdao", "Qingdao", "青岛", "TAO", "tao"]},
  {"code": "WUH", "name": "Wuhan Tianhe International Airport", "city": "Wuhan", "city_cn": "武汉", "country": "CN", "lat": 30.7838, "lon": 114.2081, "is_international_hub": false, "is_domestic_only": false, "aliases": ["wuhan", "Wuhan", "武汉", "WUH", "wuh"]},
  {"code": "XIY", "name": "Xi'an Xianyang International Airport", "city": "Xi'an", "city_cn": "西安", "country": "CN", "lat": 34.4471, "lon": 108.7516, "is_international_hub": false, "is_domestic_only": false, "aliases": ["xian", "Xi'an", "Xian", "西安", "XIY", "xiy"]},
  {"code": "PIT", "name": "Pittsburgh International Airport", "city": "Pittsburgh", "city_cn": "匹兹堡", "country": "US", "lat": 40.4915, "lon": -80.2329, "is_international_hub": false, "is_domestic_only": false, "aliases": ["pittsburgh", "Pittsburgh", "匹兹堡", "PIT", "pit"]},
  {"code": "JFK", "name": "John F. Kennedy International Airport", "city": "New York", "city_cn": "纽约", "country": "US", "lat": 40.6413, "lon": -73.7781, "is_international_hub": true, "is_domestic_only": false, "preferred": true, "aliases": ["new york", "New York", "NYC", "nyc", "纽约", "JFK", "jfk", "肯尼迪"]},
  {"code": "EWR", "name": "Newark Liberty International Airport", "city": "New York", "city_cn": "纽瓦克", "country": "US", "lat": 40.6895, "lon": -74.1745, "is_international_hub": true, "is_domestic_only": false, "aliases": ["new york", "New York", "NYC", "nyc", "纽约", "纽瓦克", "EWR", "ewr", "newark"]},
  {"code": "LGA", "name": "LaGuardia Airport", "city": "New York", "city_cn": "纽约", "country": "US", "lat": 40.7772, "lon": -73.8726, "is_international_hub": false, "is_domestic_only": true, "aliases": ["new york", "New York", "LGA", "lga", "拉瓜迪亚"]},
  {"code": "IAD", "name": "Washington Dulles International Airport", "city": "Washington DC", "city_cn": "华盛顿", "country": "US", "lat": 38.9445, "lon": -77.4558, "is_international_hub": true, "is_domestic_only": false, "aliases": ["washington", "Washington", "DC", "dc", "华盛顿", "IAD", "iad", "杜勒斯", "dulles"]},
  {"code": "DCA", "name": "Ronald Reagan Washington National Airport", "city": "Washington DC", "city_cn": "华盛顿", "country": "US", "lat": 38.8512, "lon": -77.0402, "is_international_hub": false, "is_domestic_only": true, "aliases": ["washington", "Washington", "DC", "dc", "华盛顿", "DCA", "dca", "里根"]},
  {"code": "BWI", "name": "Baltimore/Washington International Airport", "city": "Baltimore", "city_cn": "巴尔的摩", "country": "US", "lat": 39.1754, "lon": -76.6682, "is_international_hub": false, "is_domestic_only": false, "aliases": ["baltimore", "Baltimore", "巴尔的摩", "BWI", "bwi"]},
  {"code": "ORD", "name": "O'Hare International Airport", "city": "Chicago", "city_cn": "芝加哥", "country": "US", "lat": 41.9742, "lon": -87.9073, "is_international_hub": true, "is_domestic_only": false, "aliases": ["chicago", "Chicago", "芝加哥", "ORD", "ord", "奥黑尔"]},
  {"code": "PHL", "name": "Philadelphia International Airport", "city": "Philadelphia", "city_cn": "费城", "country": "US", "lat": 39.8720, "lon": -75.2410, "is_international_hub": true, "is_domestic_only": false, "aliases": ["philadelphia", "Philadelphia", "费城", "PHL", "phl"]},
  {"code": "BOS", "name": "Boston Logan International Airport", "city": "Boston", "city_cn": "波士顿", "country": "US", "lat": 42.3656, "lon": -71.0096, "is_international_hub": true, "is_domestic_only": false, "aliases": ["boston", "Boston", "波士顿", "BOS", "bos", "logan"]},
  {"code": "LAX", "name": "Los Angeles International Airport", "city": "Los Angeles", "city_cn": "洛杉矶", "country": "US", "lat": 33.9416, "lon": -118.4085, "is_international_hub": true, "is_domestic_only": false, "aliases": ["los angeles", "Los Angeles", "LA", "洛杉矶", "LAX", "lax"]},
  {"code": "SFO", "name": "San Francisco International Airport", "city": "San Francisco", "city_cn": "旧金山", "country": "US", "lat": 37.6213, "lon": -122.3790, "is_international_hub": true, "is_domestic_only": false, "aliases": ["san francisco", "San Francisco", "SF", "sf", "旧金山", "三藩市", "SFO", "sfo"]},
  {"code": "SEA", "name": "Seattle-Tacoma International Airport", "city": "Seattle", "city_cn": "西雅图", "country": "US", "lat": 47.4502, "lon": -122.3088, "is_international_hub": true, "is_domestic_only": false, "aliases": ["seattle", "Seattle", "西雅图", "SEA", "sea"]},
  {"code": "DFW", "name": "Dallas/Fort Worth International Airport", "city": "Dallas", "city_cn": "达拉斯", "country": "US", "lat": 32.8998, "lon": -97.0403, "is_international_hub": true, "is_domestic_only": false, "aliases": ["dallas", "Dallas", "达拉斯", "DFW", "dfw"]},
  {"code": "ATL", "name": "Hartsfield-Jackson Atlanta International Airport", "city": "Atlanta", "city_cn": "亚特兰大", "country": "US", "lat": 33.6407, "lon": -84.4277, "is_international_hub": true, "is_domestic_only": false, "aliases": ["atlanta", "Atlanta", "亚特兰大", "ATL", "atl"]},
  {"code": "DTW", "name": "Detroit Metropolitan Airport", "city": "Detroit", "city_cn": "底特律", "country": "US", "lat": 42.2124, "lon": -83.3534, "is_international_hub": true, "is_domestic_only": false, "aliases": ["detroit", "Detroit", "底特律", "DTW", "dtw"]},
  {"code": "MSP", "name": "Minneapolis-Saint Paul International Airport", "city": "Minneapolis", "city_cn": "明尼阿波利斯", "country": "US", "lat": 44.8820, "lon": -93.2218, "is_international_hub": true, "is_domestic_only": false, "aliases": ["minneapolis", "Minneapolis", "明尼阿波利斯", "MSP", "msp"]},
  {"code": "STL", "name": "St. Louis Lambert International Airport", "city": "St. Louis", "city_cn": "圣路易斯", "country": "US", "lat": 38.7487, "lon": -90.3700, "is_international_hub": false, "is_domestic_only": false, "aliases": ["st louis", "St. Louis", "St Louis", "圣路易斯", "STL", "stl"]},
  {"code": "YYZ", "name": "Toronto Pearson International Airport", "city": "Toronto", "city_cn": "多伦多", "country": "CA", "lat": 43.6777, "lon": -79.6248, "is_international_hub": true, "is_domestic_only": false, "aliases": ["toronto", "Toronto", "多伦多", "YYZ", "yyz"]},
  {"code": "YVR", "name": "Vancouver International Airport", "city": "Vancouver", "city_cn": "温哥华", "country": "CA", "lat": 49.1947, "lon": -123.1792, "is_international_hub": true, "is_domestic_only": false, "aliases": ["vancouver", "Vancouver", "温哥华", "YVR", "yvr"]},
  {"code": "CLE", "name": "Cleveland Hopkins International Airport", "city": "Cleveland", "city_cn": "克利夫兰", "country": "US", "lat": 41.4117, "lon": -81.8498, "is_international_hub": false, "is_domestic_only": false, "aliases": ["cleveland", "Cleveland", "克利夫兰", "CLE", "cle"]},
  {"code": "MIA", "name": "Miami International Airport", "city": "Miami", "city_cn": "迈阿密", "country": "US", "lat": 25.7932, "lon": -80.2906, "is_international_hub": true, "is_domestic_only": false, "aliases": ["miami", "Miami", "迈阿密", "MIA", "mia"]},
  {"code": "AUS", "name": "Austin-Bergstrom International Airport", "city": "Austin", "city_cn": "奥斯丁", "country": "US", "lat": 30.1975, "lon": -97.6664, "is_international_hub": false, "is_domestic_only": false, "preferred": true, "aliases": ["austin", "Austin", "奥斯丁", "奥斯汀", "AUS", "aus", "Austin-Bergstrom", "austin bergstrom"]}
]
